%time,field.header.seq,field.header.stamp,field.position0,field.position1,field.position2,field.position3,field.position4,field.position5,field.velocity0,field.velocity1,field.velocity2,field.velocity3,field.velocity4,field.velocity5,field.effort0,field.effort1,field.effort2,field.effort3,field.effort4,field.effort5
1.4865591061398E+018,183,1.48655910613964E+018,1.0875209656,1.0875209656,1.0875209656,1.0875209656,1.0875209656,1.0875209656,0,0,0,0,0,0,0,0,0,0,0,0
1.48655910614036E+018,184,1.48655910614026E+018,1.0927886935,1.0927886935,1.0927886935,1.0927886935,1.0927886935,1.0927886935,0,0,0,0,0,0,0,0,0,0,0,0
1.48655910614143E+018,185,1.48655910614127E+018,1.098045636,1.098045636,1.098045636,1.098045636,1.098045636,1.098045636,0,0,0,0,0,0,0,0,0,0,0,0
1.48655910614246E+018,186,1.48655910614228E+018,1.1032917413,1.1032917413,1.1032917413,1.1032917413,1.1032917413,1.1032917413,0,0,0,0,0,0,0,0,0,0,0,0
1.48655910614336E+018,187,1.48655910614326E+018,1.1085269575,1.1085269575,1.1085269575,1.1085269575,1.1085269575,1.1085269575,0,0,0,0,0,0,0,0,0,0,0,0
1.48655910614431E+018,188,1.48655910614424E+018,1.113751233,1.113751233,1.113751233,1.113751233,1.113751233,1.113751233,0,0,0,0,0,0,0,0,0,0,0,0
1.48655910614534E+018,189,1.48655910614524E+018,1.1189645162,1.1189645162,1.1189645162,1.1189645162,1.1189645162,1.1189645162,0,0,0,0,0,0,0,0,0,0,0,0
1.48655910614634E+018,190,1.48655910614624E+018,1.1241667557,1.1241667557,1.1241667557,1.1241667557,1.1241667557,1.1241667557,0,0,0,0,0,0,0,0,0,0,0,0
1.48655910614742E+018,191,1.48655910614728E+018,1.1293579001,1.1293579001,1.1293579001,1.1293579001,1.1293579001,1.1293579001,0,0,0,0,0,0,0,0,0,0,0,0
1.48655910614835E+018,192,1.48655910614825E+018,1.1345378983,1.1345378983,1.1345378983,1.1345378983,1.1345378983,1.1345378983,0,0,0,0,0,0,0,0,0,0,0,0
1.48655910614943E+018,193,1.48655910614927E+018,1.1397066989,1.1397066989,1.1397066989,1.1397066989,1.1397066989,1.1397066989,0,0,0,0,0,0,0,0,0,0,0,0
1.48655910615038E+018,194,1.48655910615027E+018,1.1448642512,1.1448642512,1.1448642512,1.1448642512,1.1448642512,1.1448642512,0,0,0,0,0,0,0,0,0,0,0,0
1.48655910615135E+018,195,1.48655910615126E+018,1.1500105041,1.1500105041,1.1500105041,1.1500105041,1.1500105041,1.1500105041,0,0,0,0,0,0,0,0,0,0,0,0
1.4865591061523E+018,196,1.48655910615225E+018,1.1551454068,1.1551454068,1.1551454068,1.1551454068,1.1551454068,1.1551454068,0,0,0,0,0,0,0,0,0,0,0,0
1.48655910615335E+018,197,1.48655910615326E+018,1.1602689088,1.1602689088,1.1602689088,1.1602689088,1.1602689088,1.1602689088,0,0,0,0,0,0,0,0,0,0,0,0
1.48655910615438E+018,198,1.48655910615426E+018,1.1653809593,1.1653809593,1.1653809593,1.1653809593,1.1653809593,1.1653809593,0,0,0,0,0,0,0,0,0,0,0,0
1.48655910615532E+018,199,1.48655910615523E+018,1.1704815081,1.1704815081,1.1704815081,1.1704815081,1.1704815081,1.1704815081,0,0,0,0,0,0,0,0,0,0,0,0
1.48655910615633E+018,200,1.48655910615625E+018,1.1755705046,1.1755705046,1.1755705046,1.1755705046,1.1755705046,1.1755705046,0,0,0,0,0,0,0,0,0,0,0,0
1.48655910615732E+018,201,1.48655910615725E+018,1.1806478987,1.1806478987,1.1806478987,1.1806478987,1.1806478987,1.1806478987,0,0,0,0,0,0,0,0,0,0,0,0
1.48655910615836E+018,202,1.48655910615824E+018,1.1857136403,1.1857136403,1.1857136403,1.1857136403,1.1857136403,1.1857136403,0,0,0,0,0,0,0,0,0,0,0,0
1.48655910615938E+018,203,1.48655910615925E+018,1.1907676794,1.1907676794,1.1907676794,1.1907676794,1.1907676794,1.1907676794,0,0,0,0,0,0,0,0,0,0,0,0
1.48655910616035E+018,204,1.48655910616025E+018,1.1958099661,1.1958099661,1.1958099661,1.1958099661,1.1958099661,1.1958099661,0,0,0,0,0,0,0,0,0,0,0,0
1.48655910616138E+018,205,1.48655910616124E+018,1.2008404507,1.2008404507,1.2008404507,1.2008404507,1.2008404507,1.2008404507,0,0,0,0,0,0,0,0,0,0,0,0
1.48655910616239E+018,206,1.48655910616224E+018,1.2058590834,1.2058590834,1.2058590834,1.2058590834,1.2058590834,1.2058590834,0,0,0,0,0,0,0,0,0,0,0,0
1.48655910616334E+018,207,1.48655910616324E+018,1.2108658148,1.2108658148,1.2108658148,1.2108658148,1.2108658148,1.2108658148,0,0,0,0,0,0,0,0,0,0,0,0
1.48655910616435E+018,208,1.48655910616425E+018,1.2158605954,1.2158605954,1.2158605954,1.2158605954,1.2158605954,1.2158605954,0,0,0,0,0,0,0,0,0,0,0,0
1.48655910616535E+018,209,1.48655910616524E+018,1.220843376,1.220843376,1.220843376,1.220843376,1.220843376,1.220843376,0,0,0,0,0,0,0,0,0,0,0,0
1.48655910616635E+018,210,1.48655910616624E+018,1.2258141073,1.2258141073,1.2258141073,1.2258141073,1.2258141073,1.2258141073,0,0,0,0,0,0,0,0,0,0,0,0
1.48655910616735E+018,211,1.48655910616724E+018,1.2307727404,1.2307727404,1.2307727404,1.2307727404,1.2307727404,1.2307727404,0,0,0,0,0,0,0,0,0,0,0,0
1.48655910616832E+018,212,1.48655910616826E+018,1.2357192262,1.2357192262,1.2357192262,1.2357192262,1.2357192262,1.2357192262,0,0,0,0,0,0,0,0,0,0,0,0
1.48655910616933E+018,213,1.48655910616925E+018,1.240653516,1.240653516,1.240653516,1.240653516,1.240653516,1.240653516,0,0,0,0,0,0,0,0,0,0,0,0
1.48655910617033E+018,214,1.48655910617026E+018,1.245575561,1.245575561,1.245575561,1.245575561,1.245575561,1.245575561,0,0,0,0,0,0,0,0,0,0,0,0
1.48655910617135E+018,215,1.48655910617128E+018,1.2504853127,1.2504853127,1.2504853127,1.2504853127,1.2504853127,1.2504853127,0,0,0,0,0,0,0,0,0,0,0,0
1.48655910617231E+018,216,1.48655910617226E+018,1.2553827226,1.2553827226,1.2553827226,1.2553827226,1.2553827226,1.2553827226,0,0,0,0,0,0,0,0,0,0,0,0
1.4865591061733E+018,217,1.48655910617324E+018,1.2602677424,1.2602677424,1.2602677424,1.2602677424,1.2602677424,1.2602677424,0,0,0,0,0,0,0,0,0,0,0,0
1.48655910617433E+018,218,1.48655910617424E+018,1.2651403238,1.2651403238,1.2651403238,1.2651403238,1.2651403238,1.2651403238,0,0,0,0,0,0,0,0,0,0,0,0
1.48655910617539E+018,219,1.48655910617524E+018,1.2700004189,1.2700004189,1.2700004189,1.2700004189,1.2700004189,1.2700004189,0,0,0,0,0,0,0,0,0,0,0,0
1.48655910617635E+018,220,1.48655910617624E+018,1.2748479795,1.2748479795,1.2748479795,1.2748479795,1.2748479795,1.2748479795,0,0,0,0,0,0,0,0,0,0,0,0
1.48655910617732E+018,221,1.48655910617724E+018,1.2796829579,1.2796829579,1.2796829579,1.2796829579,1.2796829579,1.2796829579,0,0,0,0,0,0,0,0,0,0,0,0
1.48655910617838E+018,222,1.48655910617824E+018,1.2845053064,1.2845053064,1.2845053064,1.2845053064,1.2845053064,1.2845053064,0,0,0,0,0,0,0,0,0,0,0,0
1.48655910617938E+018,223,1.48655910617926E+018,1.2893149773,1.2893149773,1.2893149773,1.2893149773,1.2893149773,1.2893149773,0,0,0,0,0,0,0,0,0,0,0,0
1.48655910618036E+018,224,1.48655910618025E+018,1.2941119231,1.2941119231,1.2941119231,1.2941119231,1.2941119231,1.2941119231,0,0,0,0,0,0,0,0,0,0,0,0
1.48655910618139E+018,225,1.48655910618124E+018,1.2988960967,1.2988960967,1.2988960967,1.2988960967,1.2988960967,1.2988960967,0,0,0,0,0,0,0,0,0,0,0,0
1.48655910618239E+018,226,1.48655910618224E+018,1.3036674506,1.3036674506,1.3036674506,1.3036674506,1.3036674506,1.3036674506,0,0,0,0,0,0,0,0,0,0,0,0
1.48655910618335E+018,227,1.48655910618324E+018,1.3084259379,1.3084259379,1.3084259379,1.3084259379,1.3084259379,1.3084259379,0,0,0,0,0,0,0,0,0,0,0,0
1.48655910618434E+018,228,1.48655910618424E+018,1.3131715115,1.3131715115,1.3131715115,1.3131715115,1.3131715115,1.3131715115,0,0,0,0,0,0,0,0,0,0,0,0
1.48655910618534E+018,229,1.48655910618526E+018,1.3179041247,1.3179041247,1.3179041247,1.3179041247,1.3179041247,1.3179041247,0,0,0,0,0,0,0,0,0,0,0,0
1.48655910618638E+018,230,1.48655910618625E+018,1.3226237307,1.3226237307,1.3226237307,1.3226237307,1.3226237307,1.3226237307,0,0,0,0,0,0,0,0,0,0,0,0
1.48655910618732E+018,231,1.48655910618725E+018,1.3273302829,1.3273302829,1.3273302829,1.3273302829,1.3273302829,1.3273302829,0,0,0,0,0,0,0,0,0,0,0,0
1.4865591061883E+018,232,1.48655910618824E+018,1.3320237349,1.3320237349,1.3320237349,1.3320237349,1.3320237349,1.3320237349,0,0,0,0,0,0,0,0,0,0,0,0
1.48655910618934E+018,233,1.48655910618924E+018,1.3367040403,1.3367040403,1.3367040403,1.3367040403,1.3367040403,1.3367040403,0,0,0,0,0,0,0,0,0,0,0,0
1.48655910619031E+018,234,1.48655910619026E+018,1.3413711531,1.3413711531,1.3413711531,1.3413711531,1.3413711531,1.3413711531,0,0,0,0,0,0,0,0,0,0,0,0
1.4865591061913E+018,235,1.48655910619124E+018,1.346025027,1.346025027,1.346025027,1.346025027,1.346025027,1.346025027,0,0,0,0,0,0,0,0,0,0,0,0
1.48655910619233E+018,236,1.48655910619224E+018,1.3506656162,1.3506656162,1.3506656162,1.3506656162,1.3506656162,1.3506656162,0,0,0,0,0,0,0,0,0,0,0,0
1.48655910619333E+018,237,1.48655910619324E+018,1.3552928749,1.3552928749,1.3552928749,1.3552928749,1.3552928749,1.3552928749,0,0,0,0,0,0,0,0,0,0,0,0
1.4865591061943E+018,238,1.48655910619425E+018,1.3599067574,1.3599067574,1.3599067574,1.3599067574,1.3599067574,1.3599067574,0,0,0,0,0,0,0,0,0,0,0,0
1.48655910619534E+018,239,1.48655910619524E+018,1.3645072182,1.3645072182,1.3645072182,1.3645072182,1.3645072182,1.3645072182,0,0,0,0,0,0,0,0,0,0,0,0
1.48655910619633E+018,240,1.48655910619624E+018,1.3690942119,1.3690942119,1.3690942119,1.3690942119,1.3690942119,1.3690942119,0,0,0,0,0,0,0,0,0,0,0,0
1.48655910619733E+018,241,1.48655910619724E+018,1.3736676931,1.3736676931,1.3736676931,1.3736676931,1.3736676931,1.3736676931,0,0,0,0,0,0,0,0,0,0,0,0
1.48655910619832E+018,242,1.48655910619826E+018,1.3782276168,1.3782276168,1.3782276168,1.3782276168,1.3782276168,1.3782276168,0,0,0,0,0,0,0,0,0,0,0,0
1.48655910619931E+018,243,1.48655910619926E+018,1.3827739379,1.3827739379,1.3827739379,1.3827739379,1.3827739379,1.3827739379,0,0,0,0,0,0,0,0,0,0,0,0
1.48655910620031E+018,244,1.48655910620026E+018,1.3873066116,1.3873066116,1.3873066116,1.3873066116,1.3873066116,1.3873066116,0,0,0,0,0,0,0,0,0,0,0,0
1.4865591062013E+018,245,1.48655910620124E+018,1.3918255932,1.3918255932,1.3918255932,1.3918255932,1.3918255932,1.3918255932,0,0,0,0,0,0,0,0,0,0,0,0
1.48655910620233E+018,246,1.48655910620224E+018,1.396330838,1.396330838,1.396330838,1.396330838,1.396330838,1.396330838,0,0,0,0,0,0,0,0,0,0,0,0
1.48655910620332E+018,247,1.48655910620324E+018,1.4008223016,1.4008223016,1.4008223016,1.4008223016,1.4008223016,1.4008223016,0,0,0,0,0,0,0,0,0,0,0,0
1.48655910620433E+018,248,1.48655910620424E+018,1.4052999396,1.4052999396,1.4052999396,1.4052999396,1.4052999396,1.4052999396,0,0,0,0,0,0,0,0,0,0,0,0
1.4865591062053E+018,249,1.48655910620524E+018,1.4097637079,1.4097637079,1.4097637079,1.4097637079,1.4097637079,1.4097637079,0,0,0,0,0,0,0,0,0,0,0,0
1.48655910620631E+018,250,1.48655910620626E+018,1.4142135624,1.4142135624,1.4142135624,1.4142135624,1.4142135624,1.4142135624,0,0,0,0,0,0,0,0,0,0,0,0
1.48655910620733E+018,251,1.48655910620724E+018,1.4186494591,1.4186494591,1.4186494591,1.4186494591,1.4186494591,1.4186494591,0,0,0,0,0,0,0,0,0,0,0,0
1.48655910620835E+018,252,1.48655910620824E+018,1.4230713544,1.4230713544,1.4230713544,1.4230713544,1.4230713544,1.4230713544,0,0,0,0,0,0,0,0,0,0,0,0
1.48655910620932E+018,253,1.48655910620925E+018,1.4274792046,1.4274792046,1.4274792046,1.4274792046,1.4274792046,1.4274792046,0,0,0,0,0,0,0,0,0,0,0,0
1.48655910621031E+018,254,1.48655910621025E+018,1.431872966,1.431872966,1.431872966,1.431872966,1.431872966,1.431872966,0,0,0,0,0,0,0,0,0,0,0,0
1.48655910621134E+018,255,1.48655910621124E+018,1.4362525955,1.4362525955,1.4362525955,1.4362525955,1.4362525955,1.4362525955,0,0,0,0,0,0,0,0,0,0,0,0
1.48655910621234E+018,256,1.48655910621223E+018,1.4406180498,1.4406180498,1.4406180498,1.4406180498,1.4406180498,1.4406180498,0,0,0,0,0,0,0,0,0,0,0,0
1.48655910621333E+018,257,1.48655910621323E+018,1.4449692857,1.4449692857,1.4449692857,1.4449692857,1.4449692857,1.4449692857,0,0,0,0,0,0,0,0,0,0,0,0
1.48655910621432E+018,258,1.48655910621423E+018,1.4493062604,1.4493062604,1.4493062604,1.4493062604,1.4493062604,1.4493062604,0,0,0,0,0,0,0,0,0,0,0,0
1.48655910621533E+018,259,1.48655910621523E+018,1.453628931,1.453628931,1.453628931,1.453628931,1.453628931,1.453628931,0,0,0,0,0,0,0,0,0,0,0,0
1.48655910621633E+018,260,1.48655910621624E+018,1.4579372548,1.4579372548,1.4579372548,1.4579372548,1.4579372548,1.4579372548,0,0,0,0,0,0,0,0,0,0,0,0
1.48655910621734E+018,261,1.48655910621723E+018,1.4622311895,1.4622311895,1.4622311895,1.4622311895,1.4622311895,1.4622311895,0,0,0,0,0,0,0,0,0,0,0,0
1.48655910621833E+018,262,1.48655910621823E+018,1.4665106925,1.4665106925,1.4665106925,1.4665106925,1.4665106925,1.4665106925,0,0,0,0,0,0,0,0,0,0,0,0
1.48655910621935E+018,263,1.48655910621925E+018,1.4707757216,1.4707757216,1.4707757216,1.4707757216,1.4707757216,1.4707757216,0,0,0,0,0,0,0,0,0,0,0,0
1.48655910622034E+018,264,1.48655910622023E+018,1.4750262347,1.4750262347,1.4750262347,1.4750262347,1.4750262347,1.4750262347,0,0,0,0,0,0,0,0,0,0,0,0
1.48655910622134E+018,265,1.48655910622123E+018,1.47926219,1.47926219,1.47926219,1.47926219,1.47926219,1.47926219,0,0,0,0,0,0,0,0,0,0,0,0
1.48655910622234E+018,266,1.48655910622224E+018,1.4834835455,1.4834835455,1.4834835455,1.4834835455,1.4834835455,1.4834835455,0,0,0,0,0,0,0,0,0,0,0,0
1.48655910622333E+018,267,1.48655910622325E+018,1.4876902596,1.4876902596,1.4876902596,1.4876902596,1.4876902596,1.4876902596,0,0,0,0,0,0,0,0,0,0,0,0
1.48655910622434E+018,268,1.48655910622423E+018,1.4918822909,1.4918822909,1.4918822909,1.4918822909,1.4918822909,1.4918822909,0,0,0,0,0,0,0,0,0,0,0,0
1.48655910622533E+018,269,1.48655910622524E+018,1.4960595978,1.4960595978,1.4960595978,1.4960595978,1.4960595978,1.4960595978,0,0,0,0,0,0,0,0,0,0,0,0
1.48655910622634E+018,270,1.48655910622624E+018,1.5002221393,1.5002221393,1.5002221393,1.5002221393,1.5002221393,1.5002221393,0,0,0,0,0,0,0,0,0,0,0,0
1.48655910622732E+018,271,1.48655910622723E+018,1.5043698741,1.5043698741,1.5043698741,1.5043698741,1.5043698741,1.5043698741,0,0,0,0,0,0,0,0,0,0,0,0
1.48655910622832E+018,272,1.48655910622824E+018,1.5085027615,1.5085027615,1.5085027615,1.5085027615,1.5085027615,1.5085027615,0,0,0,0,0,0,0,0,0,0,0,0
1.48655910622935E+018,273,1.48655910622925E+018,1.5126207605,1.5126207605,1.5126207605,1.5126207605,1.5126207605,1.5126207605,0,0,0,0,0,0,0,0,0,0,0,0
1.48655910623037E+018,274,1.48655910623025E+018,1.5167238306,1.5167238306,1.5167238306,1.5167238306,1.5167238306,1.5167238306,0,0,0,0,0,0,0,0,0,0,0,0
1.48655910623134E+018,275,1.48655910623124E+018,1.5208119312,1.5208119312,1.5208119312,1.5208119312,1.5208119312,1.5208119312,0,0,0,0,0,0,0,0,0,0,0,0
1.48655910623233E+018,276,1.48655910623224E+018,1.524885022,1.524885022,1.524885022,1.524885022,1.524885022,1.524885022,0,0,0,0,0,0,0,0,0,0,0,0
1.48655910623334E+018,277,1.48655910623323E+018,1.5289430629,1.5289430629,1.5289430629,1.5289430629,1.5289430629,1.5289430629,0,0,0,0,0,0,0,0,0,0,0,0
1.48655910623431E+018,278,1.48655910623422E+018,1.5329860136,1.5329860136,1.5329860136,1.5329860136,1.5329860136,1.5329860136,0,0,0,0,0,0,0,0,0,0,0,0
1.48655910623532E+018,279,1.48655910623523E+018,1.5370138344,1.5370138344,1.5370138344,1.5370138344,1.5370138344,1.5370138344,0,0,0,0,0,0,0,0,0,0,0,0
1.48655910623632E+018,280,1.48655910623624E+018,1.5410264856,1.5410264856,1.5410264856,1.5410264856,1.5410264856,1.5410264856,0,0,0,0,0,0,0,0,0,0,0,0
1.48655910623732E+018,281,1.48655910623724E+018,1.5450239274,1.5450239274,1.5450239274,1.5450239274,1.5450239274,1.5450239274,0,0,0,0,0,0,0,0,0,0,0,0
1.48655910623832E+018,282,1.48655910623824E+018,1.5490061204,1.5490061204,1.5490061204,1.5490061204,1.5490061204,1.5490061204,0,0,0,0,0,0,0,0,0,0,0,0
1.48655910623933E+018,283,1.48655910623924E+018,1.5529730254,1.5529730254,1.5529730254,1.5529730254,1.5529730254,1.5529730254,0,0,0,0,0,0,0,0,0,0,0,0
1.48655910624033E+018,284,1.48655910624024E+018,1.5569246031,1.5569246031,1.5569246031,1.5569246031,1.5569246031,1.5569246031,0,0,0,0,0,0,0,0,0,0,0,0
1.48655910624132E+018,285,1.48655910624124E+018,1.5608608147,1.5608608147,1.5608608147,1.5608608147,1.5608608147,1.5608608147,0,0,0,0,0,0,0,0,0,0,0,0
1.48655910624234E+018,286,1.48655910624225E+018,1.5647816212,1.5647816212,1.5647816212,1.5647816212,1.5647816212,1.5647816212,0,0,0,0,0,0,0,0,0,0,0,0
1.48655910624335E+018,287,1.48655910624326E+018,1.5686869839,1.5686869839,1.5686869839,1.5686869839,1.5686869839,1.5686869839,0,0,0,0,0,0,0,0,0,0,0,0
1.48655910624434E+018,288,1.48655910624423E+018,1.5725768643,1.5725768643,1.5725768643,1.5725768643,1.5725768643,1.5725768643,0,0,0,0,0,0,0,0,0,0,0,0
1.48655910624532E+018,289,1.48655910624524E+018,1.576451224,1.576451224,1.576451224,1.576451224,1.576451224,1.576451224,0,0,0,0,0,0,0,0,0,0,0,0
1.48655910624634E+018,290,1.48655910624624E+018,1.5803100248,1.5803100248,1.5803100248,1.5803100248,1.5803100248,1.5803100248,0,0,0,0,0,0,0,0,0,0,0,0
1.4865591062473E+018,291,1.48655910624724E+018,1.5841532285,1.5841532285,1.5841532285,1.5841532285,1.5841532285,1.5841532285,0,0,0,0,0,0,0,0,0,0,0,0
1.48655910624833E+018,292,1.48655910624826E+018,1.5879807973,1.5879807973,1.5879807973,1.5879807973,1.5879807973,1.5879807973,0,0,0,0,0,0,0,0,0,0,0,0
1.48655910624933E+018,293,1.48655910624923E+018,1.5917926934,1.5917926934,1.5917926934,1.5917926934,1.5917926934,1.5917926934,0,0,0,0,0,0,0,0,0,0,0,0
1.4865591062503E+018,294,1.48655910625023E+018,1.5955888791,1.5955888791,1.5955888791,1.5955888791,1.5955888791,1.5955888791,0,0,0,0,0,0,0,0,0,0,0,0
1.4865591062513E+018,295,1.48655910625124E+018,1.599369317,1.599369317,1.599369317,1.599369317,1.599369317,1.599369317,0,0,0,0,0,0,0,0,0,0,0,0
1.48655910625229E+018,296,1.48655910625224E+018,1.6031339697,1.6031339697,1.6031339697,1.6031339697,1.6031339697,1.6031339697,0,0,0,0,0,0,0,0,0,0,0,0
1.48655910625331E+018,297,1.48655910625325E+018,1.6068828002,1.6068828002,1.6068828002,1.6068828002,1.6068828002,1.6068828002,0,0,0,0,0,0,0,0,0,0,0,0
1.48655910625432E+018,298,1.48655910625425E+018,1.6106157714,1.6106157714,1.6106157714,1.6106157714,1.6106157714,1.6106157714,0,0,0,0,0,0,0,0,0,0,0,0
1.48655910625534E+018,299,1.48655910625525E+018,1.6143328465,1.6143328465,1.6143328465,1.6143328465,1.6143328465,1.6143328465,0,0,0,0,0,0,0,0,0,0,0,0
1.48655910625631E+018,300,1.48655910625622E+018,1.6180339888,1.6180339888,1.6180339888,1.6180339888,1.6180339888,1.6180339888,0,0,0,0,0,0,0,0,0,0,0,0
1.48655910625735E+018,301,1.48655910625725E+018,1.6217191617,1.6217191617,1.6217191617,1.6217191617,1.6217191617,1.6217191617,0,0,0,0,0,0,0,0,0,0,0,0
1.48655910625832E+018,302,1.48655910625822E+018,1.6253883289,1.6253883289,1.6253883289,1.6253883289,1.6253883289,1.6253883289,0,0,0,0,0,0,0,0,0,0,0,0
1.48655910625933E+018,303,1.48655910625924E+018,1.6290414541,1.6290414541,1.6290414541,1.6290414541,1.6290414541,1.6290414541,0,0,0,0,0,0,0,0,0,0,0,0
1.48655910626031E+018,304,1.48655910626024E+018,1.6326785014,1.6326785014,1.6326785014,1.6326785014,1.6326785014,1.6326785014,0,0,0,0,0,0,0,0,0,0,0,0
1.48655910626131E+018,305,1.48655910626124E+018,1.6362994349,1.6362994349,1.6362994349,1.6362994349,1.6362994349,1.6362994349,0,0,0,0,0,0,0,0,0,0,0,0
1.48655910626236E+018,306,1.48655910626226E+018,1.6399042187,1.6399042187,1.6399042187,1.6399042187,1.6399042187,1.6399042187,0,0,0,0,0,0,0,0,0,0,0,0
1.48655910626335E+018,307,1.48655910626326E+018,1.6434928173,1.6434928173,1.6434928173,1.6434928173,1.6434928173,1.6434928173,0,0,0,0,0,0,0,0,0,0,0,0
1.48655910626434E+018,308,1.48655910626426E+018,1.6470651953,1.6470651953,1.6470651953,1.6470651953,1.6470651953,1.6470651953,0,0,0,0,0,0,0,0,0,0,0,0
1.48655910626533E+018,309,1.48655910626524E+018,1.6506213174,1.6506213174,1.6506213174,1.6506213174,1.6506213174,1.6506213174,0,0,0,0,0,0,0,0,0,0,0,0
1.48655910626633E+018,310,1.48655910626624E+018,1.6541611486,1.6541611486,1.6541611486,1.6541611486,1.6541611486,1.6541611486,0,0,0,0,0,0,0,0,0,0,0,0
1.48655910626733E+018,311,1.48655910626724E+018,1.6576846538,1.6576846538,1.6576846538,1.6576846538,1.6576846538,1.6576846538,0,0,0,0,0,0,0,0,0,0,0,0
1.48655910626834E+018,312,1.48655910626822E+018,1.6611917984,1.6611917984,1.6611917984,1.6611917984,1.6611917984,1.6611917984,0,0,0,0,0,0,0,0,0,0,0,0
1.48655910626933E+018,313,1.48655910626924E+018,1.6646825477,1.6646825477,1.6646825477,1.6646825477,1.6646825477,1.6646825477,0,0,0,0,0,0,0,0,0,0,0,0
1.48655910627033E+018,314,1.48655910627024E+018,1.6681568672,1.6681568672,1.6681568672,1.6681568672,1.6681568672,1.6681568672,0,0,0,0,0,0,0,0,0,0,0,0
1.48655910627133E+018,315,1.48655910627124E+018,1.6716147227,1.6716147227,1.6716147227,1.6716147227,1.6716147227,1.6716147227,0,0,0,0,0,0,0,0,0,0,0,0
1.48655910627231E+018,316,1.48655910627224E+018,1.6750560801,1.6750560801,1.6750560801,1.6750560801,1.6750560801,1.6750560801,0,0,0,0,0,0,0,0,0,0,0,0
1.48655910627335E+018,317,1.48655910627326E+018,1.6784809053,1.6784809053,1.6784809053,1.6784809053,1.6784809053,1.6784809053,0,0,0,0,0,0,0,0,0,0,0,0
1.48655910627432E+018,318,1.48655910627425E+018,1.6818891646,1.6818891646,1.6818891646,1.6818891646,1.6818891646,1.6818891646,0,0,0,0,0,0,0,0,0,0,0,0
1.4865591062753E+018,319,1.48655910627524E+018,1.6852808243,1.6852808243,1.6852808243,1.6852808243,1.6852808243,1.6852808243,0,0,0,0,0,0,0,0,0,0,0,0
1.48655910627633E+018,320,1.48655910627626E+018,1.688655851,1.688655851,1.688655851,1.688655851,1.688655851,1.688655851,0,0,0,0,0,0,0,0,0,0,0,0
1.48655910627736E+018,321,1.48655910627722E+018,1.6920142113,1.6920142113,1.6920142113,1.6920142113,1.6920142113,1.6920142113,0,0,0,0,0,0,0,0,0,0,0,0
1.48655910627836E+018,322,1.48655910627822E+018,1.6953558722,1.6953558722,1.6953558722,1.6953558722,1.6953558722,1.6953558722,0,0,0,0,0,0,0,0,0,0,0,0
1.48655910627934E+018,323,1.48655910627925E+018,1.6986808005,1.6986808005,1.6986808005,1.6986808005,1.6986808005,1.6986808005,0,0,0,0,0,0,0,0,0,0,0,0
1.48655910628033E+018,324,1.48655910628025E+018,1.7019889636,1.7019889636,1.7019889636,1.7019889636,1.7019889636,1.7019889636,0,0,0,0,0,0,0,0,0,0,0,0
1.48655910628137E+018,325,1.48655910628123E+018,1.7052803287,1.7052803287,1.7052803287,1.7052803287,1.7052803287,1.7052803287,0,0,0,0,0,0,0,0,0,0,0,0
1.48655910628238E+018,326,1.48655910628223E+018,1.7085548634,1.7085548634,1.7085548634,1.7085548634,1.7085548634,1.7085548634,0,0,0,0,0,0,0,0,0,0,0,0
1.48655910628336E+018,327,1.48655910628323E+018,1.7118125353,1.7118125353,1.7118125353,1.7118125353,1.7118125353,1.7118125353,0,0,0,0,0,0,0,0,0,0,0,0
1.48655910628432E+018,328,1.48655910628423E+018,1.7150533124,1.7150533124,1.7150533124,1.7150533124,1.7150533124,1.7150533124,0,0,0,0,0,0,0,0,0,0,0,0
1.4865591062853E+018,329,1.48655910628522E+018,1.7182771626,1.7182771626,1.7182771626,1.7182771626,1.7182771626,1.7182771626,0,0,0,0,0,0,0,0,0,0,0,0
1.48655910628632E+018,330,1.48655910628624E+018,1.721484054,1.721484054,1.721484054,1.721484054,1.721484054,1.721484054,0,0,0,0,0,0,0,0,0,0,0,0
1.48655910628732E+018,331,1.48655910628724E+018,1.7246739551,1.7246739551,1.7246739551,1.7246739551,1.7246739551,1.7246739551,0,0,0,0,0,0,0,0,0,0,0,0
1.48655910628831E+018,332,1.48655910628825E+018,1.7278468344,1.7278468344,1.7278468344,1.7278468344,1.7278468344,1.7278468344,0,0,0,0,0,0,0,0,0,0,0,0
1.48655910628935E+018,333,1.48655910628927E+018,1.7310026605,1.7310026605,1.7310026605,1.7310026605,1.7310026605,1.7310026605,0,0,0,0,0,0,0,0,0,0,0,0
1.48655910629035E+018,334,1.48655910629027E+018,1.7341414023,1.7341414023,1.7341414023,1.7341414023,1.7341414023,1.7341414023,0,0,0,0,0,0,0,0,0,0,0,0
1.48655910629131E+018,335,1.48655910629125E+018,1.7372630289,1.7372630289,1.7372630289,1.7372630289,1.7372630289,1.7372630289,0,0,0,0,0,0,0,0,0,0,0,0
1.4865591062923E+018,336,1.48655910629224E+018,1.7403675093,1.7403675093,1.7403675093,1.7403675093,1.7403675093,1.7403675093,0,0,0,0,0,0,0,0,0,0,0,0
1.48655910629338E+018,337,1.48655910629326E+018,1.7434548131,1.7434548131,1.7434548131,1.7434548131,1.7434548131,1.7434548131,0,0,0,0,0,0,0,0,0,0,0,0
1.48655910629431E+018,338,1.48655910629423E+018,1.7465249096,1.7465249096,1.7465249096,1.7465249096,1.7465249096,1.7465249096,0,0,0,0,0,0,0,0,0,0,0,0
1.48655910629531E+018,339,1.48655910629522E+018,1.7495777687,1.7495777687,1.7495777687,1.7495777687,1.7495777687,1.7495777687,0,0,0,0,0,0,0,0,0,0,0,0
1.48655910629632E+018,340,1.48655910629624E+018,1.7526133601,1.7526133601,1.7526133601,1.7526133601,1.7526133601,1.7526133601,0,0,0,0,0,0,0,0,0,0,0,0
1.48655910629733E+018,341,1.48655910629724E+018,1.7556316539,1.7556316539,1.7556316539,1.7556316539,1.7556316539,1.7556316539,0,0,0,0,0,0,0,0,0,0,0,0
1.48655910630032E+018,342,1.48655910629823E+018,1.7586326204,1.7586326204,1.7586326204,1.7586326204,1.7586326204,1.7586326204,0,0,0,0,0,0,0,0,0,0,0,0
1.48655910630034E+018,343,1.48655910629923E+018,1.7616162299,1.7616162299,1.7616162299,1.7616162299,1.7616162299,1.7616162299,0,0,0,0,0,0,0,0,0,0,0,0
1.48655910630035E+018,344,1.48655910630023E+018,1.7645824529,1.7645824529,1.7645824529,1.7645824529,1.7645824529,1.7645824529,0,0,0,0,0,0,0,0,0,0,0,0
1.48655910630137E+018,345,1.48655910630124E+018,1.7675312602,1.7675312602,1.7675312602,1.7675312602,1.7675312602,1.7675312602,0,0,0,0,0,0,0,0,0,0,0,0
1.48655910630235E+018,346,1.48655910630223E+018,1.7704626227,1.7704626227,1.7704626227,1.7704626227,1.7704626227,1.7704626227,0,0,0,0,0,0,0,0,0,0,0,0
1.48655910630441E+018,347,1.48655910630323E+018,1.7733765114,1.7733765114,1.7733765114,1.7733765114,1.7733765114,1.7733765114,0,0,0,0,0,0,0,0,0,0,0,0
1.48655910630443E+018,348,1.48655910630423E+018,1.7762728976,1.7762728976,1.7762728976,1.7762728976,1.7762728976,1.7762728976,0,0,0,0,0,0,0,0,0,0,0,0
1.4865591063063E+018,349,1.48655910630523E+018,1.7791517528,1.7791517528,1.7791517528,1.7791517528,1.7791517528,1.7791517528,0,0,0,0,0,0,0,0,0,0,0,0
1.48655910630631E+018,350,1.48655910630622E+018,1.7820130484,1.7820130484,1.7820130484,1.7820130484,1.7820130484,1.7820130484,0,0,0,0,0,0,0,0,0,0,0,0
1.48655910630736E+018,351,1.48655910630723E+018,1.7848567563,1.7848567563,1.7848567563,1.7848567563,1.7848567563,1.7848567563,0,0,0,0,0,0,0,0,0,0,0,0
1.48655910630833E+018,352,1.48655910630824E+018,1.7876828483,1.7876828483,1.7876828483,1.7876828483,1.7876828483,1.7876828483,0,0,0,0,0,0,0,0,0,0,0,0
1.4865591063093E+018,353,1.48655910630923E+018,1.7904912967,1.7904912967,1.7904912967,1.7904912967,1.7904912967,1.7904912967,0,0,0,0,0,0,0,0,0,0,0,0
1.48655910631036E+018,354,1.48655910631023E+018,1.7932820736,1.7932820736,1.7932820736,1.7932820736,1.7932820736,1.7932820736,0,0,0,0,0,0,0,0,0,0,0,0
1.48655910631135E+018,355,1.48655910631123E+018,1.7960551515,1.7960551515,1.7960551515,1.7960551515,1.7960551515,1.7960551515,0,0,0,0,0,0,0,0,0,0,0,0
1.48655910631232E+018,356,1.48655910631223E+018,1.7988105031,1.7988105031,1.7988105031,1.7988105031,1.7988105031,1.7988105031,0,0,0,0,0,0,0,0,0,0,0,0
1.48655910631337E+018,357,1.48655910631326E+018,1.8015481012,1.8015481012,1.8015481012,1.8015481012,1.8015481012,1.8015481012,0,0,0,0,0,0,0,0,0,0,0,0
1.48655910631432E+018,358,1.48655910631425E+018,1.8042679187,1.8042679187,1.8042679187,1.8042679187,1.8042679187,1.8042679187,0,0,0,0,0,0,0,0,0,0,0,0
1.48655910631537E+018,359,1.48655910631523E+018,1.8069699289,1.8069699289,1.8069699289,1.8069699289,1.8069699289,1.8069699289,0,0,0,0,0,0,0,0,0,0,0,0
1.48655910631633E+018,360,1.48655910631625E+018,1.8096541049,1.8096541049,1.8096541049,1.8096541049,1.8096541049,1.8096541049,0,0,0,0,0,0,0,0,0,0,0,0
1.48655910631736E+018,361,1.48655910631725E+018,1.8123204204,1.8123204204,1.8123204204,1.8123204204,1.8123204204,1.8123204204,0,0,0,0,0,0,0,0,0,0,0,0
1.48655910631835E+018,362,1.48655910631825E+018,1.8149688491,1.8149688491,1.8149688491,1.8149688491,1.8149688491,1.8149688491,0,0,0,0,0,0,0,0,0,0,0,0
1.48655910631937E+018,363,1.48655910631924E+018,1.8175993647,1.8175993647,1.8175993647,1.8175993647,1.8175993647,1.8175993647,0,0,0,0,0,0,0,0,0,0,0,0
1.48655910632035E+018,364,1.48655910632025E+018,1.8202119414,1.8202119414,1.8202119414,1.8202119414,1.8202119414,1.8202119414,0,0,0,0,0,0,0,0,0,0,0,0
1.48655910632138E+018,365,1.48655910632125E+018,1.8228065533,1.8228065533,1.8228065533,1.8228065533,1.8228065533,1.8228065533,0,0,0,0,0,0,0,0,0,0,0,0
1.48655910632235E+018,366,1.48655910632225E+018,1.8253831748,1.8253831748,1.8253831748,1.8253831748,1.8253831748,1.8253831748,0,0,0,0,0,0,0,0,0,0,0,0
1.48655910632337E+018,367,1.48655910632327E+018,1.8279417806,1.8279417806,1.8279417806,1.8279417806,1.8279417806,1.8279417806,0,0,0,0,0,0,0,0,0,0,0,0
1.48655910632435E+018,368,1.48655910632425E+018,1.8304823452,1.8304823452,1.8304823452,1.8304823452,1.8304823452,1.8304823452,0,0,0,0,0,0,0,0,0,0,0,0
1.48655910632539E+018,369,1.48655910632525E+018,1.8330048438,1.8330048438,1.8330048438,1.8330048438,1.8330048438,1.8330048438,0,0,0,0,0,0,0,0,0,0,0,0
1.48655910632635E+018,370,1.48655910632623E+018,1.8355092514,1.8355092514,1.8355092514,1.8355092514,1.8355092514,1.8355092514,0,0,0,0,0,0,0,0,0,0,0,0
1.48655910632736E+018,371,1.48655910632722E+018,1.8379955432,1.8379955432,1.8379955432,1.8379955432,1.8379955432,1.8379955432,0,0,0,0,0,0,0,0,0,0,0,0
1.48655910632835E+018,372,1.48655910632825E+018,1.8404636947,1.8404636947,1.8404636947,1.8404636947,1.8404636947,1.8404636947,0,0,0,0,0,0,0,0,0,0,0,0
1.48655910632938E+018,373,1.48655910632924E+018,1.8429136816,1.8429136816,1.8429136816,1.8429136816,1.8429136816,1.8429136816,0,0,0,0,0,0,0,0,0,0,0,0
1.48655910633038E+018,374,1.48655910633025E+018,1.8453454797,1.8453454797,1.8453454797,1.8453454797,1.8453454797,1.8453454797,0,0,0,0,0,0,0,0,0,0,0,0
1.48655910633133E+018,375,1.48655910633125E+018,1.847759065,1.847759065,1.847759065,1.847759065,1.847759065,1.847759065,0,0,0,0,0,0,0,0,0,0,0,0
1.48655910633232E+018,376,1.48655910633224E+018,1.8501544137,1.8501544137,1.8501544137,1.8501544137,1.8501544137,1.8501544137,0,0,0,0,0,0,0,0,0,0,0,0
1.48655910633331E+018,377,1.48655910633324E+018,1.852531502,1.852531502,1.852531502,1.852531502,1.852531502,1.852531502,0,0,0,0,0,0,0,0,0,0,0,0
1.48655910633431E+018,378,1.48655910633422E+018,1.8548903067,1.8548903067,1.8548903067,1.8548903067,1.8548903067,1.8548903067,0,0,0,0,0,0,0,0,0,0,0,0
1.48655910633531E+018,379,1.48655910633524E+018,1.8572308043,1.8572308043,1.8572308043,1.8572308043,1.8572308043,1.8572308043,0,0,0,0,0,0,0,0,0,0,0,0
1.48655910633631E+018,380,1.48655910633624E+018,1.8595529718,1.8595529718,1.8595529718,1.8595529718,1.8595529718,1.8595529718,0,0,0,0,0,0,0,0,0,0,0,0
1.48655910633737E+018,381,1.48655910633724E+018,1.8618567862,1.8618567862,1.8618567862,1.8618567862,1.8618567862,1.8618567862,0,0,0,0,0,0,0,0,0,0,0,0
1.48655910633833E+018,382,1.48655910633825E+018,1.8641422249,1.8641422249,1.8641422249,1.8641422249,1.8641422249,1.8641422249,0,0,0,0,0,0,0,0,0,0,0,0
1.48655910633937E+018,383,1.48655910633924E+018,1.8664092653,1.8664092653,1.8664092653,1.8664092653,1.8664092653,1.8664092653,0,0,0,0,0,0,0,0,0,0,0,0
1.48655910634032E+018,384,1.48655910634024E+018,1.8686578849,1.8686578849,1.8686578849,1.8686578849,1.8686578849,1.8686578849,0,0,0,0,0,0,0,0,0,0,0,0
1.48655910634138E+018,385,1.48655910634126E+018,1.8708880617,1.8708880617,1.8708880617,1.8708880617,1.8708880617,1.8708880617,0,0,0,0,0,0,0,0,0,0,0,0
1.48655910634236E+018,386,1.48655910634226E+018,1.8730997735,1.8730997735,1.8730997735,1.8730997735,1.8730997735,1.8730997735,0,0,0,0,0,0,0,0,0,0,0,0
1.48655910634339E+018,387,1.48655910634326E+018,1.8752929986,1.8752929986,1.8752929986,1.8752929986,1.8752929986,1.8752929986,0,0,0,0,0,0,0,0,0,0,0,0
1.48655910634433E+018,388,1.48655910634425E+018,1.8774677153,1.8774677153,1.8774677153,1.8774677153,1.8774677153,1.8774677153,0,0,0,0,0,0,0,0,0,0,0,0
1.48655910634533E+018,389,1.48655910634525E+018,1.8796239022,1.8796239022,1.8796239022,1.8796239022,1.8796239022,1.8796239022,0,0,0,0,0,0,0,0,0,0,0,0
1.48655910634632E+018,390,1.48655910634625E+018,1.8817615379,1.8817615379,1.8817615379,1.8817615379,1.8817615379,1.8817615379,0,0,0,0,0,0,0,0,0,0,0,0
1.48655910634733E+018,391,1.48655910634724E+018,1.8838806014,1.8838806014,1.8838806014,1.8838806014,1.8838806014,1.8838806014,0,0,0,0,0,0,0,0,0,0,0,0
1.48655910634834E+018,392,1.48655910634825E+018,1.8859810718,1.8859810718,1.8859810718,1.8859810718,1.8859810718,1.8859810718,0,0,0,0,0,0,0,0,0,0,0,0
1.48655910634934E+018,393,1.48655910634924E+018,1.8880629283,1.8880629283,1.8880629283,1.8880629283,1.8880629283,1.8880629283,0,0,0,0,0,0,0,0,0,0,0,0
1.48655910635033E+018,394,1.48655910635024E+018,1.8901261504,1.8901261504,1.8901261504,1.8901261504,1.8901261504,1.8901261504,0,0,0,0,0,0,0,0,0,0,0,0
1.48655910635133E+018,395,1.48655910635124E+018,1.8921707177,1.8921707177,1.8921707177,1.8921707177,1.8921707177,1.8921707177,0,0,0,0,0,0,0,0,0,0,0,0
1.48655910635233E+018,396,1.48655910635224E+018,1.89419661,1.89419661,1.89419661,1.89419661,1.89419661,1.89419661,0,0,0,0,0,0,0,0,0,0,0,0
1.48655910635331E+018,397,1.48655910635324E+018,1.8962038074,1.8962038074,1.8962038074,1.8962038074,1.8962038074,1.8962038074,0,0,0,0,0,0,0,0,0,0,0,0
1.48655910635433E+018,398,1.48655910635426E+018,1.89819229,1.89819229,1.89819229,1.89819229,1.89819229,1.89819229,0,0,0,0,0,0,0,0,0,0,0,0
1.48655910635533E+018,399,1.48655910635526E+018,1.9001620382,1.9001620382,1.9001620382,1.9001620382,1.9001620382,1.9001620382,0,0,0,0,0,0,0,0,0,0,0,0
1.48655910635637E+018,400,1.48655910635625E+018,1.9021130326,1.9021130326,1.9021130326,1.9021130326,1.9021130326,1.9021130326,0,0,0,0,0,0,0,0,0,0,0,0
1.48655910635733E+018,401,1.48655910635723E+018,1.9040452539,1.9040452539,1.9040452539,1.9040452539,1.9040452539,1.9040452539,0,0,0,0,0,0,0,0,0,0,0,0
1.48655910635834E+018,402,1.48655910635826E+018,1.905958683,1.905958683,1.905958683,1.905958683,1.905958683,1.905958683,0,0,0,0,0,0,0,0,0,0,0,0
1.48655910635931E+018,403,1.48655910635925E+018,1.9078533011,1.9078533011,1.9078533011,1.9078533011,1.9078533011,1.9078533011,0,0,0,0,0,0,0,0,0,0,0,0
1.48655910636034E+018,404,1.48655910636026E+018,1.9097290895,1.9097290895,1.9097290895,1.9097290895,1.9097290895,1.9097290895,0,0,0,0,0,0,0,0,0,0,0,0
1.48655910636136E+018,405,1.48655910636126E+018,1.9115860296,1.9115860296,1.9115860296,1.9115860296,1.9115860296,1.9115860296,0,0,0,0,0,0,0,0,0,0,0,0
1.48655910636234E+018,406,1.48655910636224E+018,1.9134241031,1.9134241031,1.9134241031,1.9134241031,1.9134241031,1.9134241031,0,0,0,0,0,0,0,0,0,0,0,0
1.48655910636332E+018,407,1.48655910636324E+018,1.9152432919,1.9152432919,1.9152432919,1.9152432919,1.9152432919,1.9152432919,0,0,0,0,0,0,0,0,0,0,0,0
1.48655910636431E+018,408,1.48655910636424E+018,1.917043578,1.917043578,1.917043578,1.917043578,1.917043578,1.917043578,0,0,0,0,0,0,0,0,0,0,0,0
1.48655910636531E+018,409,1.48655910636524E+018,1.9188249437,1.9188249437,1.9188249437,1.9188249437,1.9188249437,1.9188249437,0,0,0,0,0,0,0,0,0,0,0,0
1.48655910636634E+018,410,1.48655910636626E+018,1.9205873714,1.9205873714,1.9205873714,1.9205873714,1.9205873714,1.9205873714,0,0,0,0,0,0,0,0,0,0,0,0
1.48655910636734E+018,411,1.48655910636726E+018,1.9223308436,1.9223308436,1.9223308436,1.9223308436,1.9223308436,1.9223308436,0,0,0,0,0,0,0,0,0,0,0,0
1.48655910636833E+018,412,1.48655910636826E+018,1.9240553432,1.9240553432,1.9240553432,1.9240553432,1.9240553432,1.9240553432,0,0,0,0,0,0,0,0,0,0,0,0
1.48655910636932E+018,413,1.48655910636925E+018,1.9257608531,1.9257608531,1.9257608531,1.9257608531,1.9257608531,1.9257608531,0,0,0,0,0,0,0,0,0,0,0,0
1.48655910637032E+018,414,1.48655910637025E+018,1.9274473566,1.9274473566,1.9274473566,1.9274473566,1.9274473566,1.9274473566,0,0,0,0,0,0,0,0,0,0,0,0
1.48655910637135E+018,415,1.48655910637125E+018,1.9291148369,1.9291148369,1.9291148369,1.9291148369,1.9291148369,1.9291148369,0,0,0,0,0,0,0,0,0,0,0,0
1.48655910637231E+018,416,1.48655910637224E+018,1.9307632777,1.9307632777,1.9307632777,1.9307632777,1.9307632777,1.9307632777,0,0,0,0,0,0,0,0,0,0,0,0
1.48655910637339E+018,417,1.48655910637323E+018,1.9323926626,1.9323926626,1.9323926626,1.9323926626,1.9323926626,1.9323926626,0,0,0,0,0,0,0,0,0,0,0,0
1.48655910637434E+018,418,1.48655910637424E+018,1.9340029755,1.9340029755,1.9340029755,1.9340029755,1.9340029755,1.9340029755,0,0,0,0,0,0,0,0,0,0,0,0
1.48655910637532E+018,419,1.48655910637525E+018,1.9355942007,1.9355942007,1.9355942007,1.9355942007,1.9355942007,1.9355942007,0,0,0,0,0,0,0,0,0,0,0,0
1.48655910637631E+018,420,1.48655910637624E+018,1.9371663223,1.9371663223,1.9371663223,1.9371663223,1.9371663223,1.9371663223,0,0,0,0,0,0,0,0,0,0,0,0
1.48655910637731E+018,421,1.48655910637724E+018,1.9387193248,1.9387193248,1.9387193248,1.9387193248,1.9387193248,1.9387193248,0,0,0,0,0,0,0,0,0,0,0,0
1.48655910637833E+018,422,1.48655910637826E+018,1.940253193,1.940253193,1.940253193,1.940253193,1.940253193,1.940253193,0,0,0,0,0,0,0,0,0,0,0,0
1.48655910637932E+018,423,1.48655910637925E+018,1.9417679116,1.9417679116,1.9417679116,1.9417679116,1.9417679116,1.9417679116,0,0,0,0,0,0,0,0,0,0,0,0
1.48655910638034E+018,424,1.48655910638024E+018,1.9432634658,1.9432634658,1.9432634658,1.9432634658,1.9432634658,1.9432634658,0,0,0,0,0,0,0,0,0,0,0,0
1.48655910638136E+018,425,1.48655910638126E+018,1.9447398408,1.9447398408,1.9447398408,1.9447398408,1.9447398408,1.9447398408,0,0,0,0,0,0,0,0,0,0,0,0
1.48655910638233E+018,426,1.48655910638224E+018,1.946197022,1.946197022,1.946197022,1.946197022,1.946197022,1.946197022,0,0,0,0,0,0,0,0,0,0,0,0
1.48655910638333E+018,427,1.48655910638324E+018,1.947634995,1.947634995,1.947634995,1.947634995,1.947634995,1.947634995,0,0,0,0,0,0,0,0,0,0,0,0
1.48655910638431E+018,428,1.48655910638424E+018,1.9490537456,1.9490537456,1.9490537456,1.9490537456,1.9490537456,1.9490537456,0,0,0,0,0,0,0,0,0,0,0,0
1.48655910638534E+018,429,1.48655910638526E+018,1.9504532598,1.9504532598,1.9504532598,1.9504532598,1.9504532598,1.9504532598,0,0,0,0,0,0,0,0,0,0,0,0
1.48655910638634E+018,430,1.48655910638626E+018,1.9518335239,1.9518335239,1.9518335239,1.9518335239,1.9518335239,1.9518335239,0,0,0,0,0,0,0,0,0,0,0,0
1.48655910638731E+018,431,1.48655910638724E+018,1.9531945241,1.9531945241,1.9531945241,1.9531945241,1.9531945241,1.9531945241,0,0,0,0,0,0,0,0,0,0,0,0
1.48655910638834E+018,432,1.48655910638824E+018,1.9545362471,1.9545362471,1.9545362471,1.9545362471,1.9545362471,1.9545362471,0,0,0,0,0,0,0,0,0,0,0,0
1.48655910638934E+018,433,1.48655910638924E+018,1.9558586797,1.9558586797,1.9558586797,1.9558586797,1.9558586797,1.9558586797,0,0,0,0,0,0,0,0,0,0,0,0
1.48655910639044E+018,434,1.48655910639027E+018,1.9571618087,1.9571618087,1.9571618087,1.9571618087,1.9571618087,1.9571618087,0,0,0,0,0,0,0,0,0,0,0,0
1.48655910639144E+018,435,1.48655910639128E+018,1.9584456212,1.9584456212,1.9584456212,1.9584456212,1.9584456212,1.9584456212,0,0,0,0,0,0,0,0,0,0,0,0
1.48655910639236E+018,436,1.48655910639226E+018,1.9597101048,1.9597101048,1.9597101048,1.9597101048,1.9597101048,1.9597101048,0,0,0,0,0,0,0,0,0,0,0,0
1.48655910639335E+018,437,1.48655910639325E+018,1.9609552468,1.9609552468,1.9609552468,1.9609552468,1.9609552468,1.9609552468,0,0,0,0,0,0,0,0,0,0,0,0
1.48655910639431E+018,438,1.48655910639424E+018,1.9621810349,1.9621810349,1.9621810349,1.9621810349,1.9621810349,1.9621810349,0,0,0,0,0,0,0,0,0,0,0,0
1.48655910639531E+018,439,1.48655910639524E+018,1.9633874571,1.9633874571,1.9633874571,1.9633874571,1.9633874571,1.9633874571,0,0,0,0,0,0,0,0,0,0,0,0
1.48655910639634E+018,440,1.48655910639626E+018,1.9645745015,1.9645745015,1.9645745015,1.9645745015,1.9645745015,1.9645745015,0,0,0,0,0,0,0,0,0,0,0,0
1.48655910639734E+018,441,1.48655910639726E+018,1.9657421563,1.9657421563,1.9657421563,1.9657421563,1.9657421563,1.9657421563,0,0,0,0,0,0,0,0,0,0,0,0
1.48655910639835E+018,442,1.48655910639826E+018,1.96689041,1.96689041,1.96689041,1.96689041,1.96689041,1.96689041,0,0,0,0,0,0,0,0,0,0,0,0
1.48655910639935E+018,443,1.48655910639925E+018,1.9680192513,1.9680192513,1.9680192513,1.9680192513,1.9680192513,1.9680192513,0,0,0,0,0,0,0,0,0,0,0,0
1.48655910640036E+018,444,1.48655910640026E+018,1.9691286691,1.9691286691,1.9691286691,1.9691286691,1.9691286691,1.9691286691,0,0,0,0,0,0,0,0,0,0,0,0
1.48655910640136E+018,445,1.48655910640126E+018,1.9702186523,1.9702186523,1.9702186523,1.9702186523,1.9702186523,1.9702186523,0,0,0,0,0,0,0,0,0,0,0,0
1.48655910640231E+018,446,1.48655910640224E+018,1.9712891903,1.9712891903,1.9712891903,1.9712891903,1.9712891903,1.9712891903,0,0,0,0,0,0,0,0,0,0,0,0
1.48655910640331E+018,447,1.48655910640324E+018,1.9723402725,1.9723402725,1.9723402725,1.9723402725,1.9723402725,1.9723402725,0,0,0,0,0,0,0,0,0,0,0,0
1.48655910640431E+018,448,1.48655910640424E+018,1.9733718884,1.9733718884,1.9733718884,1.9733718884,1.9733718884,1.9733718884,0,0,0,0,0,0,0,0,0,0,0,0
1.48655910640531E+018,449,1.48655910640524E+018,1.974384028,1.974384028,1.974384028,1.974384028,1.974384028,1.974384028,0,0,0,0,0,0,0,0,0,0,0,0
1.48655910640636E+018,450,1.48655910640626E+018,1.9753766812,1.9753766812,1.9753766812,1.9753766812,1.9753766812,1.9753766812,0,0,0,0,0,0,0,0,0,0,0,0
1.48655910640736E+018,451,1.48655910640726E+018,1.9763498382,1.9763498382,1.9763498382,1.9763498382,1.9763498382,1.9763498382,0,0,0,0,0,0,0,0,0,0,0,0
1.48655910640833E+018,452,1.48655910640824E+018,1.9773034895,1.9773034895,1.9773034895,1.9773034895,1.9773034895,1.9773034895,0,0,0,0,0,0,0,0,0,0,0,0
1.48655910640935E+018,453,1.48655910640922E+018,1.9782376255,1.9782376255,1.9782376255,1.9782376255,1.9782376255,1.9782376255,0,0,0,0,0,0,0,0,0,0,0,0
1.48655910641036E+018,454,1.48655910641024E+018,1.9791522372,1.9791522372,1.9791522372,1.9791522372,1.9791522372,1.9791522372,0,0,0,0,0,0,0,0,0,0,0,0
1.48655910641133E+018,455,1.48655910641122E+018,1.9800473154,1.9800473154,1.9800473154,1.9800473154,1.9800473154,1.9800473154,0,0,0,0,0,0,0,0,0,0,0,0
1.48655910641232E+018,456,1.48655910641222E+018,1.9809228514,1.9809228514,1.9809228514,1.9809228514,1.9809228514,1.9809228514,0,0,0,0,0,0,0,0,0,0,0,0
1.48655910641334E+018,457,1.48655910641326E+018,1.9817788364,1.9817788364,1.9817788364,1.9817788364,1.9817788364,1.9817788364,0,0,0,0,0,0,0,0,0,0,0,0
1.48655910641431E+018,458,1.48655910641424E+018,1.9826152621,1.9826152621,1.9826152621,1.9826152621,1.9826152621,1.9826152621,0,0,0,0,0,0,0,0,0,0,0,0
1.48655910641532E+018,459,1.48655910641522E+018,1.9834321202,1.9834321202,1.9834321202,1.9834321202,1.9834321202,1.9834321202,0,0,0,0,0,0,0,0,0,0,0,0
1.48655910641634E+018,460,1.48655910641622E+018,1.9842294026,1.9842294026,1.9842294026,1.9842294026,1.9842294026,1.9842294026,0,0,0,0,0,0,0,0,0,0,0,0
1.48655910641731E+018,461,1.48655910641724E+018,1.9850071015,1.9850071015,1.9850071015,1.9850071015,1.9850071015,1.9850071015,0,0,0,0,0,0,0,0,0,0,0,0
1.48655910641832E+018,462,1.48655910641822E+018,1.9857652091,1.9857652091,1.9857652091,1.9857652091,1.9857652091,1.9857652091,0,0,0,0,0,0,0,0,0,0,0,0
1.48655910641932E+018,463,1.48655910641922E+018,1.9865037181,1.9865037181,1.9865037181,1.9865037181,1.9865037181,1.9865037181,0,0,0,0,0,0,0,0,0,0,0,0
1.48655910642033E+018,464,1.48655910642024E+018,1.987222621,1.987222621,1.987222621,1.987222621,1.987222621,1.987222621,0,0,0,0,0,0,0,0,0,0,0,0
1.48655910642134E+018,465,1.48655910642124E+018,1.9879219109,1.9879219109,1.9879219109,1.9879219109,1.9879219109,1.9879219109,0,0,0,0,0,0,0,0,0,0,0,0
1.48655910642234E+018,466,1.48655910642224E+018,1.9886015808,1.9886015808,1.9886015808,1.9886015808,1.9886015808,1.9886015808,0,0,0,0,0,0,0,0,0,0,0,0
1.48655910642332E+018,467,1.48655910642324E+018,1.989261624,1.989261624,1.989261624,1.989261624,1.989261624,1.989261624,0,0,0,0,0,0,0,0,0,0,0,0
1.48655910642431E+018,468,1.48655910642424E+018,1.989902034,1.989902034,1.989902034,1.989902034,1.989902034,1.989902034,0,0,0,0,0,0,0,0,0,0,0,0
1.48655910642531E+018,469,1.48655910642524E+018,1.9905228044,1.9905228044,1.9905228044,1.9905228044,1.9905228044,1.9905228044,0,0,0,0,0,0,0,0,0,0,0,0
1.48655910642635E+018,470,1.48655910642622E+018,1.9911239292,1.9911239292,1.9911239292,1.9911239292,1.9911239292,1.9911239292,0,0,0,0,0,0,0,0,0,0,0,0
1.48655910642733E+018,471,1.48655910642724E+018,1.9917054024,1.9917054024,1.9917054024,1.9917054024,1.9917054024,1.9917054024,0,0,0,0,0,0,0,0,0,0,0,0
1.48655910642833E+018,472,1.48655910642824E+018,1.9922672183,1.9922672183,1.9922672183,1.9922672183,1.9922672183,1.9922672183,0,0,0,0,0,0,0,0,0,0,0,0
1.48655910642937E+018,473,1.48655910642923E+018,1.9928093713,1.9928093713,1.9928093713,1.9928093713,1.9928093713,1.9928093713,0,0,0,0,0,0,0,0,0,0,0,0
1.48655910643037E+018,474,1.48655910643027E+018,1.9933318561,1.9933318561,1.9933318561,1.9933318561,1.9933318561,1.9933318561,0,0,0,0,0,0,0,0,0,0,0,0
1.48655910643134E+018,475,1.48655910643125E+018,1.9938346675,1.9938346675,1.9938346675,1.9938346675,1.9938346675,1.9938346675,0,0,0,0,0,0,0,0,0,0,0,0
1.48655910643233E+018,476,1.48655910643225E+018,1.9943178005,1.9943178005,1.9943178005,1.9943178005,1.9943178005,1.9943178005,0,0,0,0,0,0,0,0,0,0,0,0
1.48655910643339E+018,477,1.48655910643325E+018,1.9947812505,1.9947812505,1.9947812505,1.9947812505,1.9947812505,1.9947812505,0,0,0,0,0,0,0,0,0,0,0,0
1.48655910643438E+018,478,1.48655910643426E+018,1.9952250127,1.9952250127,1.9952250127,1.9952250127,1.9952250127,1.9952250127,0,0,0,0,0,0,0,0,0,0,0,0
1.48655910643541E+018,479,1.48655910643524E+018,1.9956490829,1.9956490829,1.9956490829,1.9956490829,1.9956490829,1.9956490829,0,0,0,0,0,0,0,0,0,0,0,0
1.48655910643645E+018,480,1.48655910643627E+018,1.9960534569,1.9960534569,1.9960534569,1.9960534569,1.9960534569,1.9960534569,0,0,0,0,0,0,0,0,0,0,0,0
1.48655910643741E+018,481,1.48655910643727E+018,1.9964381306,1.9964381306,1.9964381306,1.9964381306,1.9964381306,1.9964381306,0,0,0,0,0,0,0,0,0,0,0,0
1.48655910643836E+018,482,1.48655910643826E+018,1.9968031002,1.9968031002,1.9968031002,1.9968031002,1.9968031002,1.9968031002,0,0,0,0,0,0,0,0,0,0,0,0
1.48655910643935E+018,483,1.48655910643926E+018,1.9971483622,1.9971483622,1.9971483622,1.9971483622,1.9971483622,1.9971483622,0,0,0,0,0,0,0,0,0,0,0,0
1.48655910644035E+018,484,1.48655910644026E+018,1.9974739132,1.9974739132,1.9974739132,1.9974739132,1.9974739132,1.9974739132,0,0,0,0,0,0,0,0,0,0,0,0
1.48655910644133E+018,485,1.48655910644125E+018,1.9977797499,1.9977797499,1.9977797499,1.9977797499,1.9977797499,1.9977797499,0,0,0,0,0,0,0,0,0,0,0,0
1.48655910644237E+018,486,1.48655910644226E+018,1.9980658694,1.9980658694,1.9980658694,1.9980658694,1.9980658694,1.9980658694,0,0,0,0,0,0,0,0,0,0,0,0
1.48655910644332E+018,487,1.48655910644324E+018,1.9983322687,1.9983322687,1.9983322687,1.9983322687,1.9983322687,1.9983322687,0,0,0,0,0,0,0,0,0,0,0,0
1.48655910644433E+018,488,1.48655910644424E+018,1.9985789453,1.9985789453,1.9985789453,1.9985789453,1.9985789453,1.9985789453,0,0,0,0,0,0,0,0,0,0,0,0
1.48655910644532E+018,489,1.48655910644524E+018,1.9988058967,1.9988058967,1.9988058967,1.9988058967,1.9988058967,1.9988058967,0,0,0,0,0,0,0,0,0,0,0,0
1.48655910644633E+018,490,1.48655910644624E+018,1.9990131207,1.9990131207,1.9990131207,1.9990131207,1.9990131207,1.9990131207,0,0,0,0,0,0,0,0,0,0,0,0
1.48655910644732E+018,491,1.48655910644724E+018,1.9992006153,1.9992006153,1.9992006153,1.9992006153,1.9992006153,1.9992006153,0,0,0,0,0,0,0,0,0,0,0,0
1.48655910644833E+018,492,1.48655910644826E+018,1.9993683786,1.9993683786,1.9993683786,1.9993683786,1.9993683786,1.9993683786,0,0,0,0,0,0,0,0,0,0,0,0
1.4865591064493E+018,493,1.48655910644924E+018,1.9995164089,1.9995164089,1.9995164089,1.9995164089,1.9995164089,1.9995164089,0,0,0,0,0,0,0,0,0,0,0,0
1.4865591064503E+018,494,1.48655910645024E+018,1.9996447048,1.9996447048,1.9996447048,1.9996447048,1.9996447048,1.9996447048,0,0,0,0,0,0,0,0,0,0,0,0
1.4865591064513E+018,495,1.48655910645124E+018,1.999753265,1.999753265,1.999753265,1.999753265,1.999753265,1.999753265,0,0,0,0,0,0,0,0,0,0,0,0
1.4865591064523E+018,496,1.48655910645224E+018,1.9998420884,1.9998420884,1.9998420884,1.9998420884,1.9998420884,1.9998420884,0,0,0,0,0,0,0,0,0,0,0,0
1.4865591064533E+018,497,1.48655910645324E+018,1.9999111742,1.9999111742,1.9999111742,1.9999111742,1.9999111742,1.9999111742,0,0,0,0,0,0,0,0,0,0,0,0
1.4865591064543E+018,498,1.48655910645424E+018,1.9999605217,1.9999605217,1.9999605217,1.9999605217,1.9999605217,1.9999605217,0,0,0,0,0,0,0,0,0,0,0,0
1.4865591064553E+018,499,1.48655910645524E+018,1.9999901304,1.9999901304,1.9999901304,1.9999901304,1.9999901304,1.9999901304,0,0,0,0,0,0,0,0,0,0,0,0
1.48655910645631E+018,500,1.48655910645624E+018,2,2,2,2,2,2,0,0,0,0,0,0,0,0,0,0,0,0
1.48655910645734E+018,501,1.48655910645726E+018,1.9999901304,1.9999901304,1.9999901304,1.9999901304,1.9999901304,1.9999901304,0,0,0,0,0,0,0,0,0,0,0,0
1.4865591064583E+018,502,1.48655910645824E+018,1.9999605217,1.9999605217,1.9999605217,1.9999605217,1.9999605217,1.9999605217,0,0,0,0,0,0,0,0,0,0,0,0
1.48655910645931E+018,503,1.48655910645924E+018,1.9999111742,1.9999111742,1.9999111742,1.9999111742,1.9999111742,1.9999111742,0,0,0,0,0,0,0,0,0,0,0,0
1.48655910646031E+018,504,1.48655910646024E+018,1.9998420884,1.9998420884,1.9998420884,1.9998420884,1.9998420884,1.9998420884,0,0,0,0,0,0,0,0,0,0,0,0
1.48655910646131E+018,505,1.48655910646125E+018,1.999753265,1.999753265,1.999753265,1.999753265,1.999753265,1.999753265,0,0,0,0,0,0,0,0,0,0,0,0
1.48655910646231E+018,506,1.48655910646225E+018,1.9996447048,1.9996447048,1.9996447048,1.9996447048,1.9996447048,1.9996447048,0,0,0,0,0,0,0,0,0,0,0,0
1.4865591064633E+018,507,1.48655910646324E+018,1.9995164089,1.9995164089,1.9995164089,1.9995164089,1.9995164089,1.9995164089,0,0,0,0,0,0,0,0,0,0,0,0
1.4865591064643E+018,508,1.48655910646424E+018,1.9993683786,1.9993683786,1.9993683786,1.9993683786,1.9993683786,1.9993683786,0,0,0,0,0,0,0,0,0,0,0,0
1.4865591064653E+018,509,1.48655910646524E+018,1.9992006153,1.9992006153,1.9992006153,1.9992006153,1.9992006153,1.9992006153,0,0,0,0,0,0,0,0,0,0,0,0
1.4865591064663E+018,510,1.48655910646624E+018,1.9990131207,1.9990131207,1.9990131207,1.9990131207,1.9990131207,1.9990131207,0,0,0,0,0,0,0,0,0,0,0,0
1.4865591064673E+018,511,1.48655910646724E+018,1.9988058967,1.9988058967,1.9988058967,1.9988058967,1.9988058967,1.9988058967,0,0,0,0,0,0,0,0,0,0,0,0
1.48655910646831E+018,512,1.48655910646824E+018,1.9985789453,1.9985789453,1.9985789453,1.9985789453,1.9985789453,1.9985789453,0,0,0,0,0,0,0,0,0,0,0,0
1.48655910646931E+018,513,1.48655910646924E+018,1.9983322687,1.9983322687,1.9983322687,1.9983322687,1.9983322687,1.9983322687,0,0,0,0,0,0,0,0,0,0,0,0
1.48655910647031E+018,514,1.48655910647024E+018,1.9980658694,1.9980658694,1.9980658694,1.9980658694,1.9980658694,1.9980658694,0,0,0,0,0,0,0,0,0,0,0,0
1.48655910647131E+018,515,1.48655910647124E+018,1.9977797499,1.9977797499,1.9977797499,1.9977797499,1.9977797499,1.9977797499,0,0,0,0,0,0,0,0,0,0,0,0
1.48655910647231E+018,516,1.48655910647224E+018,1.9974739132,1.9974739132,1.9974739132,1.9974739132,1.9974739132,1.9974739132,0,0,0,0,0,0,0,0,0,0,0,0
1.48655910647332E+018,517,1.48655910647326E+018,1.9971483622,1.9971483622,1.9971483622,1.9971483622,1.9971483622,1.9971483622,0,0,0,0,0,0,0,0,0,0,0,0
1.4865591064743E+018,518,1.48655910647424E+018,1.9968031002,1.9968031002,1.9968031002,1.9968031002,1.9968031002,1.9968031002,0,0,0,0,0,0,0,0,0,0,0,0
1.4865591064753E+018,519,1.48655910647524E+018,1.9964381306,1.9964381306,1.9964381306,1.9964381306,1.9964381306,1.9964381306,0,0,0,0,0,0,0,0,0,0,0,0
1.4865591064763E+018,520,1.48655910647624E+018,1.9960534569,1.9960534569,1.9960534569,1.9960534569,1.9960534569,1.9960534569,0,0,0,0,0,0,0,0,0,0,0,0
1.4865591064773E+018,521,1.48655910647724E+018,1.9956490829,1.9956490829,1.9956490829,1.9956490829,1.9956490829,1.9956490829,0,0,0,0,0,0,0,0,0,0,0,0
1.4865591064783E+018,522,1.48655910647824E+018,1.9952250127,1.9952250127,1.9952250127,1.9952250127,1.9952250127,1.9952250127,0,0,0,0,0,0,0,0,0,0,0,0
1.4865591064793E+018,523,1.48655910647924E+018,1.9947812505,1.9947812505,1.9947812505,1.9947812505,1.9947812505,1.9947812505,0,0,0,0,0,0,0,0,0,0,0,0
1.4865591064803E+018,524,1.48655910648024E+018,1.9943178005,1.9943178005,1.9943178005,1.9943178005,1.9943178005,1.9943178005,0,0,0,0,0,0,0,0,0,0,0,0
1.48655910648131E+018,525,1.48655910648124E+018,1.9938346675,1.9938346675,1.9938346675,1.9938346675,1.9938346675,1.9938346675,0,0,0,0,0,0,0,0,0,0,0,0
1.48655910648231E+018,526,1.48655910648224E+018,1.9933318561,1.9933318561,1.9933318561,1.9933318561,1.9933318561,1.9933318561,0,0,0,0,0,0,0,0,0,0,0,0
1.4865591064833E+018,527,1.48655910648324E+018,1.9928093713,1.9928093713,1.9928093713,1.9928093713,1.9928093713,1.9928093713,0,0,0,0,0,0,0,0,0,0,0,0
1.48655910648428E+018,528,1.48655910648422E+018,1.9922672183,1.9922672183,1.9922672183,1.9922672183,1.9922672183,1.9922672183,0,0,0,0,0,0,0,0,0,0,0,0
1.48655910648531E+018,529,1.48655910648524E+018,1.9917054024,1.9917054024,1.9917054024,1.9917054024,1.9917054024,1.9917054024,0,0,0,0,0,0,0,0,0,0,0,0
1.48655910648631E+018,530,1.48655910648624E+018,1.9911239292,1.9911239292,1.9911239292,1.9911239292,1.9911239292,1.9911239292,0,0,0,0,0,0,0,0,0,0,0,0
1.48655910648734E+018,531,1.48655910648726E+018,1.9905228044,1.9905228044,1.9905228044,1.9905228044,1.9905228044,1.9905228044,0,0,0,0,0,0,0,0,0,0,0,0
1.48655910648832E+018,532,1.48655910648825E+018,1.989902034,1.989902034,1.989902034,1.989902034,1.989902034,1.989902034,0,0,0,0,0,0,0,0,0,0,0,0
1.48655910648931E+018,533,1.48655910648924E+018,1.989261624,1.989261624,1.989261624,1.989261624,1.989261624,1.989261624,0,0,0,0,0,0,0,0,0,0,0,0
1.4865591064903E+018,534,1.48655910649024E+018,1.9886015808,1.9886015808,1.9886015808,1.9886015808,1.9886015808,1.9886015808,0,0,0,0,0,0,0,0,0,0,0,0
1.4865591064913E+018,535,1.48655910649124E+018,1.9879219109,1.9879219109,1.9879219109,1.9879219109,1.9879219109,1.9879219109,0,0,0,0,0,0,0,0,0,0,0,0
1.4865591064923E+018,536,1.48655910649224E+018,1.987222621,1.987222621,1.987222621,1.987222621,1.987222621,1.987222621,0,0,0,0,0,0,0,0,0,0,0,0
1.4865591064933E+018,537,1.48655910649324E+018,1.9865037181,1.9865037181,1.9865037181,1.9865037181,1.9865037181,1.9865037181,0,0,0,0,0,0,0,0,0,0,0,0
1.4865591064943E+018,538,1.48655910649424E+018,1.9857652091,1.9857652091,1.9857652091,1.9857652091,1.9857652091,1.9857652091,0,0,0,0,0,0,0,0,0,0,0,0
1.4865591064953E+018,539,1.48655910649524E+018,1.9850071015,1.9850071015,1.9850071015,1.9850071015,1.9850071015,1.9850071015,0,0,0,0,0,0,0,0,0,0,0,0
1.48655910649629E+018,540,1.48655910649622E+018,1.9842294026,1.9842294026,1.9842294026,1.9842294026,1.9842294026,1.9842294026,0,0,0,0,0,0,0,0,0,0,0,0
1.4865591064973E+018,541,1.48655910649724E+018,1.9834321202,1.9834321202,1.9834321202,1.9834321202,1.9834321202,1.9834321202,0,0,0,0,0,0,0,0,0,0,0,0
1.48655910649831E+018,542,1.48655910649826E+018,1.9826152621,1.9826152621,1.9826152621,1.9826152621,1.9826152621,1.9826152621,0,0,0,0,0,0,0,0,0,0,0,0
1.48655910649931E+018,543,1.48655910649925E+018,1.9817788364,1.9817788364,1.9817788364,1.9817788364,1.9817788364,1.9817788364,0,0,0,0,0,0,0,0,0,0,0,0
1.48655910650031E+018,544,1.48655910650025E+018,1.9809228514,1.9809228514,1.9809228514,1.9809228514,1.9809228514,1.9809228514,0,0,0,0,0,0,0,0,0,0,0,0
1.48655910650131E+018,545,1.48655910650125E+018,1.9800473154,1.9800473154,1.9800473154,1.9800473154,1.9800473154,1.9800473154,0,0,0,0,0,0,0,0,0,0,0,0
1.48655910650233E+018,546,1.48655910650225E+018,1.9791522372,1.9791522372,1.9791522372,1.9791522372,1.9791522372,1.9791522372,0,0,0,0,0,0,0,0,0,0,0,0
1.4865591065033E+018,547,1.48655910650324E+018,1.9782376255,1.9782376255,1.9782376255,1.9782376255,1.9782376255,1.9782376255,0,0,0,0,0,0,0,0,0,0,0,0
1.4865591065043E+018,548,1.48655910650424E+018,1.9773034895,1.9773034895,1.9773034895,1.9773034895,1.9773034895,1.9773034895,0,0,0,0,0,0,0,0,0,0,0,0
1.4865591065053E+018,549,1.48655910650524E+018,1.9763498382,1.9763498382,1.9763498382,1.9763498382,1.9763498382,1.9763498382,0,0,0,0,0,0,0,0,0,0,0,0
1.4865591065063E+018,550,1.48655910650624E+018,1.9753766812,1.9753766812,1.9753766812,1.9753766812,1.9753766812,1.9753766812,0,0,0,0,0,0,0,0,0,0,0,0
1.48655910650731E+018,551,1.48655910650725E+018,1.974384028,1.974384028,1.974384028,1.974384028,1.974384028,1.974384028,0,0,0,0,0,0,0,0,0,0,0,0
1.48655910650831E+018,552,1.48655910650825E+018,1.9733718884,1.9733718884,1.9733718884,1.9733718884,1.9733718884,1.9733718884,0,0,0,0,0,0,0,0,0,0,0,0
1.48655910650931E+018,553,1.48655910650925E+018,1.9723402725,1.9723402725,1.9723402725,1.9723402725,1.9723402725,1.9723402725,0,0,0,0,0,0,0,0,0,0,0,0
1.4865591065103E+018,554,1.48655910651024E+018,1.9712891903,1.9712891903,1.9712891903,1.9712891903,1.9712891903,1.9712891903,0,0,0,0,0,0,0,0,0,0,0,0
1.4865591065113E+018,555,1.48655910651124E+018,1.9702186523,1.9702186523,1.9702186523,1.9702186523,1.9702186523,1.9702186523,0,0,0,0,0,0,0,0,0,0,0,0
1.48655910651231E+018,556,1.48655910651225E+018,1.9691286691,1.9691286691,1.9691286691,1.9691286691,1.9691286691,1.9691286691,0,0,0,0,0,0,0,0,0,0,0,0
1.48655910651331E+018,557,1.48655910651325E+018,1.9680192513,1.9680192513,1.9680192513,1.9680192513,1.9680192513,1.9680192513,0,0,0,0,0,0,0,0,0,0,0,0
1.48655910651431E+018,558,1.48655910651425E+018,1.96689041,1.96689041,1.96689041,1.96689041,1.96689041,1.96689041,0,0,0,0,0,0,0,0,0,0,0,0
1.48655910651531E+018,559,1.48655910651525E+018,1.9657421563,1.9657421563,1.9657421563,1.9657421563,1.9657421563,1.9657421563,0,0,0,0,0,0,0,0,0,0,0,0
1.48655910651629E+018,560,1.48655910651622E+018,1.9645745015,1.9645745015,1.9645745015,1.9645745015,1.9645745015,1.9645745015,0,0,0,0,0,0,0,0,0,0,0,0
1.48655910651729E+018,561,1.48655910651722E+018,1.9633874571,1.9633874571,1.9633874571,1.9633874571,1.9633874571,1.9633874571,0,0,0,0,0,0,0,0,0,0,0,0
1.4865591065183E+018,562,1.48655910651824E+018,1.9621810349,1.9621810349,1.9621810349,1.9621810349,1.9621810349,1.9621810349,0,0,0,0,0,0,0,0,0,0,0,0
1.4865591065193E+018,563,1.48655910651924E+018,1.9609552468,1.9609552468,1.9609552468,1.9609552468,1.9609552468,1.9609552468,0,0,0,0,0,0,0,0,0,0,0,0
1.4865591065203E+018,564,1.48655910652024E+018,1.9597101048,1.9597101048,1.9597101048,1.9597101048,1.9597101048,1.9597101048,0,0,0,0,0,0,0,0,0,0,0,0
1.4865591065213E+018,565,1.48655910652124E+018,1.9584456212,1.9584456212,1.9584456212,1.9584456212,1.9584456212,1.9584456212,0,0,0,0,0,0,0,0,0,0,0,0
1.4865591065223E+018,566,1.48655910652224E+018,1.9571618087,1.9571618087,1.9571618087,1.9571618087,1.9571618087,1.9571618087,0,0,0,0,0,0,0,0,0,0,0,0
1.48655910652331E+018,567,1.48655910652326E+018,1.9558586797,1.9558586797,1.9558586797,1.9558586797,1.9558586797,1.9558586797,0,0,0,0,0,0,0,0,0,0,0,0
1.4865591065243E+018,568,1.48655910652424E+018,1.9545362471,1.9545362471,1.9545362471,1.9545362471,1.9545362471,1.9545362471,0,0,0,0,0,0,0,0,0,0,0,0
1.4865591065253E+018,569,1.48655910652524E+018,1.9531945241,1.9531945241,1.9531945241,1.9531945241,1.9531945241,1.9531945241,0,0,0,0,0,0,0,0,0,0,0,0
1.4865591065263E+018,570,1.48655910652624E+018,1.9518335239,1.9518335239,1.9518335239,1.9518335239,1.9518335239,1.9518335239,0,0,0,0,0,0,0,0,0,0,0,0
1.48655910652729E+018,571,1.48655910652722E+018,1.9504532598,1.9504532598,1.9504532598,1.9504532598,1.9504532598,1.9504532598,0,0,0,0,0,0,0,0,0,0,0,0
1.4865591065283E+018,572,1.48655910652824E+018,1.9490537456,1.9490537456,1.9490537456,1.9490537456,1.9490537456,1.9490537456,0,0,0,0,0,0,0,0,0,0,0,0
1.4865591065293E+018,573,1.48655910652924E+018,1.947634995,1.947634995,1.947634995,1.947634995,1.947634995,1.947634995,0,0,0,0,0,0,0,0,0,0,0,0
1.48655910653029E+018,574,1.48655910653022E+018,1.946197022,1.946197022,1.946197022,1.946197022,1.946197022,1.946197022,0,0,0,0,0,0,0,0,0,0,0,0
1.4865591065313E+018,575,1.48655910653124E+018,1.9447398408,1.9447398408,1.9447398408,1.9447398408,1.9447398408,1.9447398408,0,0,0,0,0,0,0,0,0,0,0,0
1.4865591065323E+018,576,1.48655910653224E+018,1.9432634658,1.9432634658,1.9432634658,1.9432634658,1.9432634658,1.9432634658,0,0,0,0,0,0,0,0,0,0,0,0
1.48655910653331E+018,577,1.48655910653325E+018,1.9417679116,1.9417679116,1.9417679116,1.9417679116,1.9417679116,1.9417679116,0,0,0,0,0,0,0,0,0,0,0,0
1.48655910653429E+018,578,1.48655910653422E+018,1.940253193,1.940253193,1.940253193,1.940253193,1.940253193,1.940253193,0,0,0,0,0,0,0,0,0,0,0,0
1.48655910653531E+018,579,1.48655910653525E+018,1.9387193248,1.9387193248,1.9387193248,1.9387193248,1.9387193248,1.9387193248,0,0,0,0,0,0,0,0,0,0,0,0
1.48655910653631E+018,580,1.48655910653625E+018,1.9371663223,1.9371663223,1.9371663223,1.9371663223,1.9371663223,1.9371663223,0,0,0,0,0,0,0,0,0,0,0,0
1.48655910653731E+018,581,1.48655910653725E+018,1.9355942007,1.9355942007,1.9355942007,1.9355942007,1.9355942007,1.9355942007,0,0,0,0,0,0,0,0,0,0,0,0
1.48655910653831E+018,582,1.48655910653825E+018,1.9340029755,1.9340029755,1.9340029755,1.9340029755,1.9340029755,1.9340029755,0,0,0,0,0,0,0,0,0,0,0,0
